[
  { "name": "Stendal",    "lat": "52.6069", "lon": "11.8587" },
  { "name": "Güsen",      "lat": "52.2864", "lon": "12.0914" },
  { "name": "Wuppertal",  "lat": "51.2562", "lon": "7.1508" },
  { "name": "Bonn",       "lat": "50.7374", "lon": "7.0982" },
  { "name": "Würzburg",   "lat": "49.7913", "lon": "9.9534" }
]
